[
  {
    "name": "北九州市駅",
    "latitude": 33.8833,
    "longitude": 130.8757
  },
  {
    "name": "二島駅",
    "latitude": 33.8933,
    "longitude": 130.7568
  },
  {
    "name": "藤ノ木駅",
    "latitude": 33.8975,
    "longitude": 130.7842
  },
  {
    "name": "萩原駅",
    "latitude": 33.8423,
    "longitude": 130.7352
  },
  {
    "name": "本城駅",
    "latitude": 33.8296,
    "longitude": 130.7558
  },
  {
    "name": "奥洞海駅",
    "latitude": 33.8282,
    "longitude": 130.7812
  },
  {
    "name": "枝光駅",
    "latitude": 33.8828,
    "longitude": 130.8212
  },
  {
    "name": "永犬丸駅",
    "latitude": 33.85,
    "longitude": 130.7339
  },
  {
    "name": "石原町駅",
    "latitude": 33.879,
    "longitude": 130.8887
  },
  {
    "name": "出光美術館駅",
    "latitude": 33.9378,
    "longitude": 130.9436
  },
  {
    "name": "今池駅",
    "latitude": 33.8511,
    "longitude": 130.7243
  },
  {
    "name": "三ケ森駅",
    "latitude": 33.8563,
    "longitude": 130.7265
  },
  {
    "name": "新木屋瀬駅",
    "latitude": 33.8437,
    "longitude": 130.734
  },
  {
    "name": "木屋瀬駅",
    "latitude": 33.8424,
    "longitude": 130.7342
  },
  {
    "name": "熊西駅",
    "latitude": 33.8519,
    "longitude": 130.7534
  },
  {
    "name": "楠橋駅",
    "latitude": 33.8425,
    "longitude": 130.7154
  },
  {
    "name": "朽網駅",
    "latitude": 33.8833,
    "longitude": 130.8875
  },
  {
    "name": "スペースワールド駅",
    "latitude": 33.8722,
    "longitude": 130.8267
  },
  {
    "name": "香月駅",
    "latitude": 33.8441,
    "longitude": 130.734
  },
  {
    "name": "筑豊香月駅",
    "latitude": 33.8444,
    "longitude": 130.7341
  },
  {
    "name": "福岡市駅",
    "latitude": 33.5902,
    "longitude": 130.4017
  }
]
